[{
  "id": 50,
  "name": "Bagietka",
  "address": {
    "postalCode": "80-107",
    "district": "Siedlce",
    "street": "ul. Kartuska 16a/78"
    },
  "image": "",
  "openingHours": {
    "weekday_open": "7",
    "weekday_close": "19",
    "saturday_open": "9",
    "saturday_close": "17",
    "sunday_open": "9",
    "sunday_close": "17"
    },
  "category_id": [1, 6],
  "description": "Piekarnia i cukierna - super fajna sprawa"
  },
  {
    "id": 51,
    "name": "Prosiak",
    "address": {
      "postalCode": "80-107",
      "district": "Siedlce",
      "street": "ul. Malczewskiego 34b"
    },
    "image": "",
    "openingHours": {
      "weekday_open": "9",
      "weekday_close": "17",
      "saturday_open": "9",
      "saturday_close": "15",
      "sunday_open": "",
      "sunday_close": ""
    },
    "category_id": [2, 4, 8],
    "description": "Wędlinki, sery i kaszanka."
  },
  {
    "id": 56,
    "name": "Warzywniak",
    "address": {
      "postalCode": "80-177",
      "district": "Karczemki",
      "street": "ul. Azaliowa 10"
    },
    "image": "",
    "openingHours": {
      "weekday_open": "9",
      "weekday_close": "19",
      "saturday_open": "10",
      "saturday_close": "14",
      "sunday_open": "",
      "sunday_close": ""
    },
    "category_id": [3, 4],
    "description": "Jabłka, jabłuszka, jabłusienki, jabłeczka..."
  },
  {
    "id": 56,
    "name": "Bułka maślana",
    "address": {
      "postalCode": "80-390",
      "district": "Chełm",
      "street": "ul. Krolowej Zygmuty 16a/78"
    },
    "image": "",
    "openingHours": {
      "weekday_open": "9",
      "weekday_close": "17",
      "saturday_open": "10",
      "saturday_close": "15",
      "sunday_open": "",
      "sunday_close": ""
    },
    "category_id": [1, 6],
    "description": "Bułka maślana - maślana bułka, i tu się kończy moja wymyślana."
  },
  {
    "id": 58,
    "name": "Marshmallowssss",
    "address": {
      "postalCode": "80-390",
      "district": "Chełm",
      "street": "ul. Zygmuty 178"
    },
    "image": "",
    "openingHours": {
      "weekday_open": "9",
      "weekday_close": "17",
      "saturday_open": "9",
      "saturday_close": "16",
      "sunday_open": "9",
      "sunday_close": "16"
    },
    "category_id": [1, 4, 6, 8, 11],
    "description": "Nie tylko świeże bułeczki a i ziółka znajdziesz u nas."
  }
]
